{
  "type": "FeatureCollection",
  "features": [
    {
      "type": "Feature",
      "geometry": {
        "type": "Point",
        "coordinates": [
          -73.992217,
          40.717232
        ]
      },
      "properties": {
        "name": "601Artspace",
        "address": "88 Eldridge St",
        "url": "http://601Artspace.org",
        "updated": false
      }
    },
    {
      "type": "Feature",
      "geometry": {
        "type": "Point",
        "coordinates": [
          -73.983741,
          40.71524
        ]
      },
      "properties": {
        "name": "Abrons Art Center",
        "address": "466 Grand St",
        "url": "https://www.abronsartscenter.org/programs/screen-memories",
        "updated": false
      }
    },
    {
      "type": "Feature",
      "geometry": {
        "type": "Point",
        "coordinates": [
          -73.993064,
          40.726825
        ]
      },
      "properties": {
        "name": "Aicon Art",
        "address": "35 Great Jones St",
        "url": "https://www.aicon.art/",
        "updated": false
      }
    },
    {
      "type": "Feature",
      "geometry": {
        "type": "Point",
        "coordinates": [
          -73.992589,
          40.721744
        ]
      },
      "properties": {
        "name": "Amanita",
        "address": "1 Freeman Alley",
        "url": "http://spazioamanita.com/",
        "updated": false
      }
    },
    {
      "type": "Feature",
      "geometry": {
        "type": "Point",
        "coordinates": [
          -73.987946,
          40.713707
        ]
      },
      "properties": {
        "name": "Amos Eno Gallery",
        "address": "191 Henry St",
        "url": "http://amoseno.org/",
        "updated": false
      }
    },
    {
      "type": "Feature",
      "geometry": {
        "type": "Point",
        "coordinates": [
          -73.987725,
          40.720883
        ]
      },
      "properties": {
        "name": "Baxter St at CCNY",
        "address": "154 Ludlow St",
        "url": "http://www.baxterst.org",
        "updated": false
      }
    },
    {
      "type": "Feature",
      "geometry": {
        "type": "Point",
        "coordinates": [
          -73.99028,
          40.720112
        ]
      },
      "properties": {
        "name": "bitforms gallery",
        "address": "131 Allen St",
        "url": "http://www.bitforms.com",
        "updated": false
      }
    },
    {
      "type": "Feature",
      "geometry": {
        "type": "Point",
        "coordinates": [
          -73.986145,
          40.71911
        ]
      },
      "properties": {
        "name": "The Clemente Center",
        "address": "107 Suffolk St",
        "url": "http://theclementecenter.org",
        "updated": false
      }
    },
    {
      "type": "Feature",
      "geometry": {
        "type": "Point",
        "coordinates": [
          -73.988274,
          40.718147
        ]
      },
      "properties": {
        "name": "Cuchifritos",
        "address": "88 Essex St",
        "url": "http://www.artistsallianceinc.org",
        "updated": false
      }
    },
    {
      "type": "Feature",
      "geometry": {
        "type": "Point",
        "coordinates": [
          -73.989751,
          40.717837
        ]
      },
      "properties": {
        "name": "Equity Gallery",
        "address": "245 Broome St",
        "url": "http://www.nyartistsequity.org/",
        "updated": false
      }
    },
    {
      "type": "Feature",
      "geometry": {
        "type": "Point",
        "coordinates": [
          -73.990344,
          40.713087
        ]
      },
      "properties": {
        "name": "Foreign & Domestic",
        "address": "24 Rutgers St",
        "url": "https://www.foreigndomestic.io/",
        "updated": false
      }
    },
    {
      "type": "Feature",
      "geometry": {
        "type": "Point",
        "coordinates": [
          -73.98686,
          40.719726
        ]
      },
      "properties": {
        "name": "Gallery Onetwentyeight",
        "address": "128 Rivington St",
        "url": "http://galleryonetwentyeight.org/",
        "updated": false
      }
    },
    {
      "type": "Feature",
      "geometry": {
        "type": "Point",
        "coordinates": [
          -73.988741,
          40.720678
        ]
      },
      "properties": {
        "name": "Hannah Traore Gallery",
        "address": "150 Orchard St",
        "url": "https://hannahtraoregallery.com/",
        "updated": false
      }
    },
    {
      "type": "Feature",
      "geometry": {
        "type": "Point",
        "coordinates": [
          -73.982687,
          40.71847
        ]
      },
      "properties": {
        "name": "HARMAN PROJECTS",
        "address": "210 Rivington St",
        "url": "http://www.hashimotocontemporary.com",
        "updated": false
      }
    },
    {
      "type": "Feature",
      "geometry": {
        "type": "Point",
        "coordinates": [
          -73.990006,
          40.71651
        ]
      },
      "properties": {
        "name": "Hashimoto Contemporary",
        "address": "54 Ludlow St",
        "url": "http://www.hashimotocontemporary.com",
        "updated": false
      }
    },
    {
      "type": "Feature",
      "geometry": {
        "type": "Point",
        "coordinates": [
          -73.987256,
          40.719041
        ]
      },
      "properties": {
        "name": "Hollis Taggart Downtown",
        "address": "109 Norfolk St",
        "url": "hollistaggart.com",
        "updated": false
      }
    },
    {
      "type": "Feature",
      "geometry": {
        "type": "Point",
        "coordinates": [
          -73.992556,
          40.725072
        ]
      },
      "properties": {
        "name": "IFAC",
        "address": "312 Bowery",
        "url": "http://ifacarts.com/",
        "updated": false
      }
    },
    {
      "type": "Feature",
      "geometry": {
        "type": "Point",
        "coordinates": [
          -73.989019,
          40.718311
        ]
      },
      "properties": {
        "name": "International Center of Photography",
        "address": "84 Ludlow St",
        "url": "http://www.icp.org",
        "updated": false
      }
    },
    {
      "type": "Feature",
      "geometry": {
        "type": "Point",
        "coordinates": [
          -73.949146,
          40.711309
        ]
      },
      "properties": {
        "name": "KATES\u2013FERRI PROJECTS",
        "address": "561 Grand St",
        "url": "http://www.katesferriprojects.com/",
        "updated": false
      }
    },
    {
      "type": "Feature",
      "geometry": {
        "type": "Point",
        "coordinates": [
          -73.992853,
          40.716024
        ]
      },
      "properties": {
        "name": "Kiang Malingue",
        "address": "50 Eldridge St",
        "url": "https://kiangmalingue.com",
        "updated": false
      }
    },
    {
      "type": "Feature",
      "geometry": {
        "type": "Point",
        "coordinates": [
          -73.984659,
          40.718874
        ]
      },
      "properties": {
        "name": "Lichtundfire",
        "address": "175 Rivington St",
        "url": "http://www.lichtundfire.com",
        "updated": false
      }
    },
    {
      "type": "Feature",
      "geometry": {
        "type": "Point",
        "coordinates": [
          -73.995348,
          40.712778
        ]
      },
      "properties": {
        "name": "Long Story Short",
        "address": "52  Henry St",
        "url": "http://www.marcstraus.com",
        "updated": false
      }
    },
    {
      "type": "Feature",
      "geometry": {
        "type": "Point",
        "coordinates": [
          -73.982489,
          40.714522
        ]
      },
      "properties": {
        "name": "LUNCH (NADAProject Space)",
        "address": "311 East Broadway",
        "url": "http://www.newartdealers.org/",
        "updated": false
      }
    },
    {
      "type": "Feature",
      "geometry": {
        "type": "Point",
        "coordinates": [
          -73.991943,
          40.717423
        ]
      },
      "properties": {
        "name": "MARC STRAUS",
        "address": "299 Grand St",
        "url": "http://www.marcstraus.com",
        "updated": false
      }
    },
    {
      "type": "Feature",
      "geometry": {
        "type": "Point",
        "coordinates": [
          -73.996872,
          40.716998
        ]
      },
      "properties": {
        "name": "Martos Gallery",
        "address": "41 Elizabeth St",
        "url": "http://www.martosgallery.com",
        "updated": false
      }
    },
    {
      "type": "Feature",
      "geometry": {
        "type": "Point",
        "coordinates": [
          -73.992147,
          40.719338
        ]
      },
      "properties": {
        "name": "Massey Klein Gallery",
        "address": "124 Forsyth St",
        "url": "http://www.masseyklein.com",
        "updated": false
      }
    },
    {
      "type": "Feature",
      "geometry": {
        "type": "Point",
        "coordinates": [
          -73.987772,
          40.713729
        ]
      },
      "properties": {
        "name": "McBride / Dillman",
        "address": "195 Henry St",
        "url": "http://www.mcbridedillman.com/",
        "updated": false
      }
    },
    {
      "type": "Feature",
      "geometry": {
        "type": "Point",
        "coordinates": [
          -73.991163,
          40.716685
        ]
      },
      "properties": {
        "name": "McKenzie Fine Art",
        "address": "55 Orchard St",
        "url": "http://mckenziefineart.com",
        "updated": false
      }
    },
    {
      "type": "Feature",
      "geometry": {
        "type": "Point",
        "coordinates": [
          -73.992217,
          40.717232
        ]
      },
      "properties": {
        "name": "Miguel Abreu Gallery",
        "address": "88 Eldridge St",
        "url": "http://miguelabreugallery.com/",
        "updated": false
      }
    },
    {
      "type": "Feature",
      "geometry": {
        "type": "Point",
        "coordinates": [
          -73.992548,
          40.717328
        ]
      },
      "properties": {
        "name": "The Milton Resnick and Pat Passlof Foundation",
        "address": "87 Eldridge St",
        "url": "https://www.ResnickPasslof.org/",
        "updated": false
      }
    },
    {
      "type": "Feature",
      "geometry": {
        "type": "Point",
        "coordinates": [
          -73.993532,
          40.71475
        ]
      },
      "properties": {
        "name": "Museum at Eldridge Street",
        "address": "12 Eldridge St",
        "url": "https://www.eldridgestreet.org/",
        "updated": false
      }
    },
    {
      "type": "Feature",
      "geometry": {
        "type": "Point",
        "coordinates": [
          -73.992909,
          40.722333
        ]
      },
      "properties": {
        "name": "The New Museum of Contemporary Art",
        "address": "235 Bowery",
        "url": "http://www.newmuseum.org",
        "updated": false
      }
    },
    {
      "type": "Feature",
      "geometry": {
        "type": "Point",
        "coordinates": [
          -73.996616,
          40.720241
        ]
      },
      "properties": {
        "name": "Nunu Fine Art",
        "address": "381 Broome St",
        "url": "https://www.nunufineart.com/",
        "updated": false
      }
    },
    {
      "type": "Feature",
      "geometry": {
        "type": "Point",
        "coordinates": [
          -73.995313,
          40.719087
        ]
      },
      "properties": {
        "name": "Participant Inc.",
        "address": "116 Elizabeth St",
        "url": "http://www.participantinc.org",
        "updated": false
      }
    },
    {
      "type": "Feature",
      "geometry": {
        "type": "Point",
        "coordinates": [
          -73.989341,
          40.719614
        ]
      },
      "properties": {
        "name": "Perrotin",
        "address": "130 Orchard St",
        "url": "http://www.perrotin.com",
        "updated": false
      }
    },
    {
      "type": "Feature",
      "geometry": {
        "type": "Point",
        "coordinates": [
          -73.957428,
          40.713163
        ]
      },
      "properties": {
        "name": "Scroll",
        "address": "291 Grand St",
        "url": "http://www.scroll.nyc",
        "updated": false
      }
    },
    {
      "type": "Feature",
      "geometry": {
        "type": "Point",
        "coordinates": [
          -73.9971,
          40.720902
        ]
      },
      "properties": {
        "name": "Storefront for Art and Architecture",
        "address": "97 Kenmare St",
        "url": "http://storefrontnews.org/",
        "updated": false
      }
    },
    {
      "type": "Feature",
      "geometry": {
        "type": "Point",
        "coordinates": [
          -73.992155,
          40.728568
        ]
      },
      "properties": {
        "name": "SWPK Gallery (Sylvia Wald and Po Kim Art Foundation)",
        "address": "417 Lafayette St",
        "url": "http://www.swpk.org/",
        "updated": false
      }
    },
    {
      "type": "Feature",
      "geometry": {
        "type": "Point",
        "coordinates": [
          -73.992711,
          40.72124
        ]
      },
      "properties": {
        "name": "Tibor de Nagy",
        "address": "11 Rivington St",
        "url": "http://www.tibordenagy.com",
        "updated": false
      }
    },
    {
      "type": "Feature",
      "geometry": {
        "type": "Point",
        "coordinates": [
          -73.983874,
          40.719953
        ]
      },
      "properties": {
        "name": "TOTAH",
        "address": "183 Stanton St",
        "url": "http://davidtotah.com/",
        "updated": false
      }
    },
    {
      "type": "Feature",
      "geometry": {
        "type": "Point",
        "coordinates": [
          -73.984907,
          40.720901
        ]
      },
      "properties": {
        "name": "Uffner & Liu",
        "address": "170 Suffolk St",
        "url": "http://www.uffnerliu.com/",
        "updated": false
      }
    },
    {
      "type": "Feature",
      "geometry": {
        "type": "Point",
        "coordinates": [
          -73.989696,
          40.727765
        ]
      },
      "properties": {
        "name": "The Ukrainian Museum",
        "address": "222 East 6th St",
        "url": "https://www.ukrainianmuseum.org/",
        "updated": false
      }
    },
    {
      "type": "Feature",
      "geometry": {
        "type": "Point",
        "coordinates": [
          -73.930502,
          40.811456
        ]
      },
      "properties": {
        "name": "Ulrik",
        "address": "175 Canal St",
        "url": "https://ulrik.nyc/ULRIK/",
        "updated": false
      }
    },
    {
      "type": "Feature",
      "geometry": {
        "type": "Point",
        "coordinates": [
          -73.957202,
          40.713077
        ]
      },
      "properties": {
        "name": "Underdonk",
        "address": "297 Grand St",
        "url": "https://www.underdonk.com/",
        "updated": false
      }
    },
    {
      "type": "Feature",
      "geometry": {
        "type": "Point",
        "coordinates": [
          -73.993179,
          40.723325
        ]
      },
      "properties": {
        "name": "WESTWOOD GALLERY NYC",
        "address": "262 Bowery",
        "url": "http://www.westwoodgallery.com",
        "updated": false
      }
    },
    {
      "type": "Feature",
      "geometry": {
        "type": "Point",
        "coordinates": [
          -73.93865,
          40.699577
        ]
      },
      "properties": {
        "name": "Will Shott",
        "address": "17 Pike St",
        "url": "http://www.willshott.com/",
        "updated": false
      }
    },
    {
      "type": "Feature",
      "geometry": {
        "type": "Point",
        "coordinates": [
          -73.991543,
          40.718846
        ]
      },
      "properties": {
        "name": "Woodward Gallery",
        "address": "132A Eldridge St",
        "url": "https://woodwardgallery.net/",
        "updated": false
      }
    },
    {
      "type": "Feature",
      "geometry": {
        "type": "Point",
        "coordinates": [
          -74.003382,
          40.71878
        ]
      },
      "properties": {
        "name": "55 Walker(Andrew Kreps, Bortolami, kaufmann repetto)",
        "address": "55 Walker St",
        "url": "https://www.kaufmannrepetto.com",
        "updated": false
      }
    },
    {
      "type": "Feature",
      "geometry": {
        "type": "Point",
        "coordinates": [
          -74.004968,
          40.717396
        ]
      },
      "properties": {
        "name": "81 Leonard Gallery",
        "address": "81 Leonard  St",
        "url": "http://81leonardgallery.com/",
        "updated": false
      }
    },
    {
      "type": "Feature",
      "geometry": {
        "type": "Point",
        "coordinates": [
          -73.954108,
          40.707235
        ]
      },
      "properties": {
        "name": "125 Newbury",
        "address": "395 Broadway",
        "url": "http://www.125newbury.com",
        "updated": false
      }
    },
    {
      "type": "Feature",
      "geometry": {
        "type": "Point",
        "coordinates": [
          -73.998552,
          40.717339
        ]
      },
      "properties": {
        "name": "201@105",
        "address": "105 Mulberry St",
        "url": "http://www.201at105.com/",
        "updated": false
      }
    },
    {
      "type": "Feature",
      "geometry": {
        "type": "Point",
        "coordinates": [
          -73.955279,
          40.707287
        ]
      },
      "properties": {
        "name": "370 Broadway (JDJ, Deanna Evans Projects, Chozick Family Art Gallery)",
        "address": "370 Broadway",
        "url": "",
        "updated": false
      }
    },
    {
      "type": "Feature",
      "geometry": {
        "type": "Point",
        "coordinates": [
          -73.954831,
          40.707159
        ]
      },
      "properties": {
        "name": "Alexander Gray Associates",
        "address": "384 Broadway",
        "url": "http://www.alexandergray.com/",
        "updated": false
      }
    },
    {
      "type": "Feature",
      "geometry": {
        "type": "Point",
        "coordinates": [
          -73.955258,
          40.707634
        ]
      },
      "properties": {
        "name": "Almine Rech",
        "address": "361 Broadway",
        "url": "http://alminerech.com/",
        "updated": false
      }
    },
    {
      "type": "Feature",
      "geometry": {
        "type": "Point",
        "coordinates": [
          -74.00006,
          40.723034
        ]
      },
      "properties": {
        "name": "Amelie du Chalard",
        "address": "87 Mercer St",
        "url": "http://amelieduchalard.com/",
        "updated": false
      }
    },
    {
      "type": "Feature",
      "geometry": {
        "type": "Point",
        "coordinates": [
          -74.003016,
          40.717655
        ]
      },
      "properties": {
        "name": "Anat Ebgi",
        "address": "372 Broadway",
        "url": "https://anatebgi.com/",
        "updated": false
      }
    },
    {
      "type": "Feature",
      "geometry": {
        "type": "Point",
        "coordinates": [
          -73.954545,
          40.707111
        ]
      },
      "properties": {
        "name": "Andrew Edlin Gallery",
        "address": "392 Broadway",
        "url": "http://www.edlingallery.com",
        "updated": false
      }
    },
    {
      "type": "Feature",
      "geometry": {
        "type": "Point",
        "coordinates": [
          -74.002011,
          40.718178
        ]
      },
      "properties": {
        "name": "Andrew Kreps Gallery",
        "address": "22 Cortlandt Alley",
        "url": "http://www.andrewkreps.com",
        "updated": false
      }
    },
    {
      "type": "Feature",
      "geometry": {
        "type": "Point",
        "coordinates": [
          -74.009347,
          40.725451
        ]
      },
      "properties": {
        "name": "Anita Rogers Gallery",
        "address": "494 Greenwich St",
        "url": "https://www.anitarogersgallery.com/",
        "updated": false
      }
    },
    {
      "type": "Feature",
      "geometry": {
        "type": "Point",
        "coordinates": [
          -74.001316,
          40.717918
        ]
      },
      "properties": {
        "name": "Anton Kern WINDOW",
        "address": "91 Walker St",
        "url": "https://antonkerngallery.com/window",
        "updated": false
      }
    },
    {
      "type": "Feature",
      "geometry": {
        "type": "Point",
        "coordinates": [
          -74.004458,
          40.719043
        ]
      },
      "properties": {
        "name": "apexart",
        "address": "291 Church St",
        "url": "https://apexart.org/",
        "updated": false
      }
    },
    {
      "type": "Feature",
      "geometry": {
        "type": "Point",
        "coordinates": [
          -74.002055,
          40.718018
        ]
      },
      "properties": {
        "name": "Arsenal Contemporary",
        "address": "21 Cortlandt Alley",
        "url": "http://www.arsenalcontemporary.com",
        "updated": false
      }
    },
    {
      "type": "Feature",
      "geometry": {
        "type": "Point",
        "coordinates": [
          -74.003556,
          40.719261
        ]
      },
      "properties": {
        "name": "Art in Brackets\u2122",
        "address": "46 Walker St",
        "url": "https:www.artinbrackets.com",
        "updated": false
      }
    },
    {
      "type": "Feature",
      "geometry": {
        "type": "Point",
        "coordinates": [
          -74.009888,
          40.722617
        ]
      },
      "properties": {
        "name": "Art Projects International",
        "address": "434 Greenwich St",
        "url": "http://artprojects.com/",
        "updated": false
      }
    },
    {
      "type": "Feature",
      "geometry": {
        "type": "Point",
        "coordinates": [
          -74.00203,
          40.718
        ]
      },
      "properties": {
        "name": "Artists Space",
        "address": "11 Cortlandt Alley",
        "url": "http://artistsspace.org/",
        "updated": false
      }
    },
    {
      "type": "Feature",
      "geometry": {
        "type": "Point",
        "coordinates": [
          -74.004328,
          40.718493
        ]
      },
      "properties": {
        "name": "Asya Geisberg Gallery",
        "address": "45 White St",
        "url": "http://www.asyageisberggallery.com/",
        "updated": false
      }
    },
    {
      "type": "Feature",
      "geometry": {
        "type": "Point",
        "coordinates": [
          -74.00399,
          40.719125
        ]
      },
      "properties": {
        "name": "BORTOLAMI",
        "address": "39 Walker St",
        "url": "http://bortolamigallery.com/",
        "updated": false
      }
    },
    {
      "type": "Feature",
      "geometry": {
        "type": "Point",
        "coordinates": [
          -73.954804,
          40.707544
        ]
      },
      "properties": {
        "name": "Broadway",
        "address": "373 Broadway",
        "url": "http://broadwaygallery.nyc/",
        "updated": false
      }
    },
    {
      "type": "Feature",
      "geometry": {
        "type": "Point",
        "coordinates": [
          -74.002791,
          40.719368
        ]
      },
      "properties": {
        "name": "Canada",
        "address": "60 Lispenard St",
        "url": "https://www.canadanewyork.com/",
        "updated": false
      }
    },
    {
      "type": "Feature",
      "geometry": {
        "type": "Point",
        "coordinates": [
          -74.003655,
          40.720923
        ]
      },
      "properties": {
        "name": "Canal Projects",
        "address": "351 Canal St",
        "url": "http://canalprojects.org/",
        "updated": false
      }
    },
    {
      "type": "Feature",
      "geometry": {
        "type": "Point",
        "coordinates": [
          -73.954429,
          40.707079
        ]
      },
      "properties": {
        "name": "Charles Moffett",
        "address": "394 Broadway",
        "url": "https://charlesmoffett.com/",
        "updated": false
      }
    },
    {
      "type": "Feature",
      "geometry": {
        "type": "Point",
        "coordinates": [
          -74.004274,
          40.717934
        ]
      },
      "properties": {
        "name": "CHART",
        "address": "74 Franklin St",
        "url": "http://www.chart-gallery.com",
        "updated": false
      }
    },
    {
      "type": "Feature",
      "geometry": {
        "type": "Point",
        "coordinates": [
          -74.003573,
          40.71893
        ]
      },
      "properties": {
        "name": "Cristin Tierney",
        "address": "49 Walker St",
        "url": "https://cristintierney.com",
        "updated": false
      }
    },
    {
      "type": "Feature",
      "geometry": {
        "type": "Point",
        "coordinates": [
          -73.946482,
          40.706939
        ]
      },
      "properties": {
        "name": "D. D. D. D.",
        "address": "79 Leonard St",
        "url": "https://dddd.pictures/",
        "updated": false
      }
    },
    {
      "type": "Feature",
      "geometry": {
        "type": "Point",
        "coordinates": [
          -74.003289,
          40.719132
        ]
      },
      "properties": {
        "name": "David Zwirner",
        "address": "52 Walker St",
        "url": "https://www.davidzwirner.com/",
        "updated": false
      }
    },
    {
      "type": "Feature",
      "geometry": {
        "type": "Point",
        "coordinates": [
          -74.003865,
          40.719404
        ]
      },
      "properties": {
        "name": "Derek Eller Gallery",
        "address": "38 Walker St",
        "url": "http://www.derekeller.com/",
        "updated": false
      }
    },
    {
      "type": "Feature",
      "geometry": {
        "type": "Point",
        "coordinates": [
          -73.953912,
          40.706724
        ]
      },
      "properties": {
        "name": "DIMIN",
        "address": "406 Broadway",
        "url": "https://dimin.nyc/",
        "updated": false
      }
    },
    {
      "type": "Feature",
      "geometry": {
        "type": "Point",
        "coordinates": [
          -74.002841,
          40.72241
        ]
      },
      "properties": {
        "name": "The Drawing Center",
        "address": "35 Wooster St",
        "url": "http://www.drawingcenter.org/",
        "updated": false
      }
    },
    {
      "type": "Feature",
      "geometry": {
        "type": "Point",
        "coordinates": [
          -74.003112,
          40.717529
        ]
      },
      "properties": {
        "name": "Elza Kayal Gallery",
        "address": "368 Broadway",
        "url": "https://elzakayal.com/",
        "updated": false
      }
    },
    {
      "type": "Feature",
      "geometry": {
        "type": "Point",
        "coordinates": [
          -74.004914,
          40.718441
        ]
      },
      "properties": {
        "name": "Friedrichs Pontone",
        "address": "273 Church St",
        "url": "http://www.friedrichspontone.com/",
        "updated": false
      }
    },
    {
      "type": "Feature",
      "geometry": {
        "type": "Point",
        "coordinates": [
          -74.00607,
          40.717578
        ]
      },
      "properties": {
        "name": "Galerie56 x Gallery FUMI",
        "address": "240 Church St",
        "url": "https://galerie56.com/",
        "updated": false
      }
    },
    {
      "type": "Feature",
      "geometry": {
        "type": "Point",
        "coordinates": [
          -74.003865,
          40.719404
        ]
      },
      "properties": {
        "name": "George Adams Gallery",
        "address": "38 Walker St",
        "url": "http://georgeadamsgallery.com",
        "updated": false
      }
    },
    {
      "type": "Feature",
      "geometry": {
        "type": "Point",
        "coordinates": [
          -74.008501,
          40.715048
        ]
      },
      "properties": {
        "name": "GR gallery",
        "address": "116 Chambers St",
        "url": "http://www.gr-gallery.com/",
        "updated": false
      }
    },
    {
      "type": "Feature",
      "geometry": {
        "type": "Point",
        "coordinates": [
          -74.003775,
          40.718514
        ]
      },
      "properties": {
        "name": "GRIMM",
        "address": "54 White St",
        "url": "http://www.grimmgallery.com/",
        "updated": false
      }
    },
    {
      "type": "Feature",
      "geometry": {
        "type": "Point",
        "coordinates": [
          -74.00274,
          40.72029
        ]
      },
      "properties": {
        "name": "Guild Gallery",
        "address": "321 Canal St",
        "url": "https://rwguildgalleryny.com/",
        "updated": false
      }
    },
    {
      "type": "Feature",
      "geometry": {
        "type": "Point",
        "coordinates": [
          -74.009618,
          40.715531
        ]
      },
      "properties": {
        "name": "Hal Bromm Gallery",
        "address": "90 West Broadway",
        "url": "http://www.halbromm.com",
        "updated": false
      }
    },
    {
      "type": "Feature",
      "geometry": {
        "type": "Point",
        "coordinates": [
          -74.001239,
          40.718225
        ]
      },
      "properties": {
        "name": "Harkawik",
        "address": "88 Walker  St",
        "url": "http://harkawik.com/",
        "updated": false
      }
    },
    {
      "type": "Feature",
      "geometry": {
        "type": "Point",
        "coordinates": [
          -73.999657,
          40.725608
        ]
      },
      "properties": {
        "name": "Hauser & Wirth",
        "address": "134 Wooster St",
        "url": "http://hauserwirth.com/",
        "updated": false
      }
    },
    {
      "type": "Feature",
      "geometry": {
        "type": "Point",
        "coordinates": [
          -74.003111,
          40.718222
        ]
      },
      "properties": {
        "name": "HB381",
        "address": "381 Broadway",
        "url": "https://hb381gallery.com/",
        "updated": false
      }
    },
    {
      "type": "Feature",
      "geometry": {
        "type": "Point",
        "coordinates": [
          -73.946482,
          40.706939
        ]
      },
      "properties": {
        "name": "Hemingway Gallery",
        "address": "88 Leonard St",
        "url": "https://hemingwayafricangallery.com/",
        "updated": false
      }
    },
    {
      "type": "Feature",
      "geometry": {
        "type": "Point",
        "coordinates": [
          -74.004514,
          40.717744
        ]
      },
      "properties": {
        "name": "HESSE FLATOW",
        "address": "77 Franklin St",
        "url": "http://www.hesseflatow.com/",
        "updated": false
      }
    },
    {
      "type": "Feature",
      "geometry": {
        "type": "Point",
        "coordinates": [
          -74.006717,
          40.715219
        ]
      },
      "properties": {
        "name": "High Noon",
        "address": "68 Reade St",
        "url": "http://highnoongallery.com",
        "updated": false
      }
    },
    {
      "type": "Feature",
      "geometry": {
        "type": "Point",
        "coordinates": [
          -73.957321,
          40.729771
        ]
      },
      "properties": {
        "name": "Institute for Studies on Latin American Art (ISLAA)",
        "address": "142 Franklin St",
        "url": "https://islaa.org/",
        "updated": false
      }
    },
    {
      "type": "Feature",
      "geometry": {
        "type": "Point",
        "coordinates": [
          -74.007872,
          40.719983
        ]
      },
      "properties": {
        "name": "Ippodo Gallery",
        "address": "35 N Moore St",
        "url": "https://www.ippodogallery.com/",
        "updated": false
      }
    },
    {
      "type": "Feature",
      "geometry": {
        "type": "Point",
        "coordinates": [
          -74.00338,
          40.71637
        ]
      },
      "properties": {
        "name": "Jack Shainman Gallery",
        "address": "46 Lafayette St",
        "url": "https://jackshainman.com/",
        "updated": false
      }
    },
    {
      "type": "Feature",
      "geometry": {
        "type": "Point",
        "coordinates": [
          -74.003289,
          40.719132
        ]
      },
      "properties": {
        "name": "James Cohan",
        "address": "52 Walker St",
        "url": "http://www.jamescohan.com",
        "updated": false
      }
    },
    {
      "type": "Feature",
      "geometry": {
        "type": "Point",
        "coordinates": [
          -74.003889,
          40.718576
        ]
      },
      "properties": {
        "name": "James Fuentes Gallery",
        "address": "52 White St",
        "url": "https://jamesfuentes.com/",
        "updated": false
      }
    },
    {
      "type": "Feature",
      "geometry": {
        "type": "Point",
        "coordinates": [
          -74.003639,
          40.718484
        ]
      },
      "properties": {
        "name": "Jane Lombard Gallery",
        "address": "58 White St",
        "url": "http://www.janelombardgallery.com/",
        "updated": false
      }
    },
    {
      "type": "Feature",
      "geometry": {
        "type": "Point",
        "coordinates": [
          -74.003199,
          40.721472
        ]
      },
      "properties": {
        "name": "Jeffrey Deitch",
        "address": "18 Wooster St",
        "url": "https://www.deitch.com/",
        "updated": false
      }
    },
    {
      "type": "Feature",
      "geometry": {
        "type": "Point",
        "coordinates": [
          -73.935252,
          40.705319
        ]
      },
      "properties": {
        "name": "The Journal Gallery",
        "address": "45 White Street",
        "url": "http://www.thejournalgallery.com/",
        "updated": false
      }
    },
    {
      "type": "Feature",
      "geometry": {
        "type": "Point",
        "coordinates": [
          -73.999417,
          40.723462
        ]
      },
      "properties": {
        "name": "Judd Foundation - Donald Judd's Studio and Home",
        "address": "101 Spring Street",
        "url": "https://juddfoundation.org",
        "updated": false
      }
    },
    {
      "type": "Feature",
      "geometry": {
        "type": "Point",
        "coordinates": [
          -74.003382,
          40.71878
        ]
      },
      "properties": {
        "name": "kaufmann repetto",
        "address": "55 Walker Street",
        "url": "https://www.kaufmannrepetto.com",
        "updated": false
      }
    },
    {
      "type": "Feature",
      "geometry": {
        "type": "Point",
        "coordinates": [
          -74.00483,
          40.720605
        ]
      },
      "properties": {
        "name": "LATITUDE Gallery",
        "address": "5 Lispenard St",
        "url": "https://latitudegallery.nyc/",
        "updated": false
      }
    },
    {
      "type": "Feature",
      "geometry": {
        "type": "Point",
        "coordinates": [
          -74.003093,
          40.721661
        ]
      },
      "properties": {
        "name": "Leslie-Lohman Museum of Art",
        "address": "26 Wooster  Street",
        "url": "https://www.leslielohman.org",
        "updated": false
      }
    },
    {
      "type": "Feature",
      "geometry": {
        "type": "Point",
        "coordinates": [
          -74.002705,
          40.718882
        ]
      },
      "properties": {
        "name": "Leslie Tonkonow Artworks + Projects",
        "address": "401 Broadway",
        "url": "http://www.tonkonow.com/",
        "updated": false
      }
    },
    {
      "type": "Feature",
      "geometry": {
        "type": "Point",
        "coordinates": [
          -73.934587,
          40.703308
        ]
      },
      "properties": {
        "name": "Luhring Augustine Tribeca",
        "address": "17 White St",
        "url": "https://www.luhringaugustine.com",
        "updated": false
      }
    },
    {
      "type": "Feature",
      "geometry": {
        "type": "Point",
        "coordinates": [
          -73.954445,
          40.707417
        ]
      },
      "properties": {
        "name": "Marian Goodman Gallery",
        "address": "385 Broadway",
        "url": "http://mariangoodman.com/",
        "updated": false
      }
    },
    {
      "type": "Feature",
      "geometry": {
        "type": "Point",
        "coordinates": [
          -74.00372,
          40.71892
        ]
      },
      "properties": {
        "name": "Mendes Wood DM",
        "address": "47 Walker St",
        "url": "http://mendeswooddm.com/",
        "updated": false
      }
    },
    {
      "type": "Feature",
      "geometry": {
        "type": "Point",
        "coordinates": [
          -74.003789,
          40.717909
        ]
      },
      "properties": {
        "name": "Nicelle Beauchene Gallery",
        "address": "7 Franklin Place",
        "url": "http://www.nicellebeauchene.com",
        "updated": false
      }
    },
    {
      "type": "Feature",
      "geometry": {
        "type": "Point",
        "coordinates": [
          -73.962114,
          40.733054
        ]
      },
      "properties": {
        "name": "Nicodim Gallery",
        "address": "15 Greene St",
        "url": "https://www.nicodimgallery.com/",
        "updated": false
      }
    },
    {
      "type": "Feature",
      "geometry": {
        "type": "Point",
        "coordinates": [
          -73.985451,
          40.757847
        ]
      },
      "properties": {
        "name": "Nino Mier Gallery",
        "address": "380 Broadway",
        "url": "https://www.miergallery.com/",
        "updated": false
      }
    },
    {
      "type": "Feature",
      "geometry": {
        "type": "Point",
        "coordinates": [
          -74.008196,
          40.71387
        ]
      },
      "properties": {
        "name": "One Art Space",
        "address": "23 Warren St",
        "url": "https://www.oneartspace.com/",
        "updated": false
      }
    },
    {
      "type": "Feature",
      "geometry": {
        "type": "Point",
        "coordinates": [
          -73.934679,
          40.703586
        ]
      },
      "properties": {
        "name": "Ortuzar",
        "address": "5 White St",
        "url": "https://www.ortuzarprojects.com/",
        "updated": false
      }
    },
    {
      "type": "Feature",
      "geometry": {
        "type": "Point",
        "coordinates": [
          -74.008904,
          40.719477
        ]
      },
      "properties": {
        "name": "Pablo's Birthday",
        "address": "105 Hudson St",
        "url": "http://pablosbirthday.com/",
        "updated": false
      }
    },
    {
      "type": "Feature",
      "geometry": {
        "type": "Point",
        "coordinates": [
          -73.961142,
          40.714292
        ]
      },
      "properties": {
        "name": "Peter Blum Gallery",
        "address": "176 Grand St",
        "url": "http://www.peterblumgallery.com",
        "updated": false
      }
    },
    {
      "type": "Feature",
      "geometry": {
        "type": "Point",
        "coordinates": [
          -73.962407,
          40.714771
        ]
      },
      "properties": {
        "name": "Peter Freeman, Inc.",
        "address": "140 Grand St",
        "url": "http://www.peterfreemaninc.com/",
        "updated": false
      }
    },
    {
      "type": "Feature",
      "geometry": {
        "type": "Point",
        "coordinates": [
          -73.954545,
          40.707111
        ]
      },
      "properties": {
        "name": "P\u00b7P\u00b7O\u00b7W",
        "address": "392 Broadway",
        "url": "http://www.ppowgallery.com",
        "updated": false
      }
    },
    {
      "type": "Feature",
      "geometry": {
        "type": "Point",
        "coordinates": [
          -73.999031,
          40.718277
        ]
      },
      "properties": {
        "name": "PES FUTURES",
        "address": "128 Baxter St",
        "url": "http://projectforemptyspace.org/",
        "updated": false
      }
    },
    {
      "type": "Feature",
      "geometry": {
        "type": "Point",
        "coordinates": [
          -73.999811,
          40.717336
        ]
      },
      "properties": {
        "name": "PROTOCINEMAHosted by ISS Storefront for Ideas",
        "address": "127 Walker St",
        "url": "https://www.protocinema.org/",
        "updated": false
      }
    },
    {
      "type": "Feature",
      "geometry": {
        "type": "Point",
        "coordinates": [
          -73.935275,
          40.705388
        ]
      },
      "properties": {
        "name": "R & Company",
        "address": "64 White Street",
        "url": "http://www.r-and-company.com/",
        "updated": false
      }
    },
    {
      "type": "Feature",
      "geometry": {
        "type": "Point",
        "coordinates": [
          -73.998857,
          40.728482
        ]
      },
      "properties": {
        "name": "The Renee & Chaim Gross Foundation",
        "address": "526 LaGuardia Place",
        "url": "http://rcgrossfoundation.org/",
        "updated": false
      }
    },
    {
      "type": "Feature",
      "geometry": {
        "type": "Point",
        "coordinates": [
          -74.001759,
          40.721114
        ]
      },
      "properties": {
        "name": "Ronald Feldman Gallery",
        "address": "31 Mercer St",
        "url": "http://feldmangallery.com/",
        "updated": false
      }
    },
    {
      "type": "Feature",
      "geometry": {
        "type": "Point",
        "coordinates": [
          -74.001495,
          40.718795
        ]
      },
      "properties": {
        "name": "Ruttkowski;68",
        "address": "46 Cortlandt Alley",
        "url": "http://ruttkowski68.com/",
        "updated": false
      }
    },
    {
      "type": "Feature",
      "geometry": {
        "type": "Point",
        "coordinates": [
          -73.954804,
          40.707544
        ]
      },
      "properties": {
        "name": "SARAHCROWN",
        "address": "373 Broadway",
        "url": "https://www.sarahcrown.com/",
        "updated": false
      }
    },
    {
      "type": "Feature",
      "geometry": {
        "type": "Point",
        "coordinates": [
          -73.955279,
          40.707287
        ]
      },
      "properties": {
        "name": "Sargent's Daughters",
        "address": "370 Broadway",
        "url": "https://schoelkopfgallery.com/",
        "updated": false
      }
    },
    {
      "type": "Feature",
      "geometry": {
        "type": "Point",
        "coordinates": [
          -73.954607,
          40.707127
        ]
      },
      "properties": {
        "name": "Schoelkopf Gallery",
        "address": "390 Broadway",
        "url": "https://schoelkopfgallery.com/",
        "updated": false
      }
    },
    {
      "type": "Feature",
      "geometry": {
        "type": "Point",
        "coordinates": [
          -74.011237,
          40.713643
        ]
      },
      "properties": {
        "name": "Shirley Fiterman Art",
        "address": "81 Barclay St",
        "url": "http://www.bmcc.cuny.edu/sfac//",
        "updated": false
      }
    },
    {
      "type": "Feature",
      "geometry": {
        "type": "Point",
        "coordinates": [
          -74.003112,
          40.717529
        ]
      },
      "properties": {
        "name": "SHRINE",
        "address": "368 Broadway",
        "url": "https://www.shrine.nyc/",
        "updated": false
      }
    },
    {
      "type": "Feature",
      "geometry": {
        "type": "Point",
        "coordinates": [
          -73.946482,
          40.706939
        ]
      },
      "properties": {
        "name": "Southern Guild",
        "address": "75 Leonard St",
        "url": "https://southernguild.com/",
        "updated": false
      }
    },
    {
      "type": "Feature",
      "geometry": {
        "type": "Point",
        "coordinates": [
          -73.998758,
          40.721428
        ]
      },
      "properties": {
        "name": "Space Gallery SOHO /St Barth",
        "address": "428 Broome St",
        "url": "http://www.spacegallerystbarth.com/",
        "updated": false
      }
    },
    {
      "type": "Feature",
      "geometry": {
        "type": "Point",
        "coordinates": [
          -73.954901,
          40.707558
        ]
      },
      "properties": {
        "name": "Space ZeroOne",
        "address": "371 Broadway",
        "url": "https://zeroone.space/",
        "updated": false
      }
    },
    {
      "type": "Feature",
      "geometry": {
        "type": "Point",
        "coordinates": [
          -74.001426,
          40.719601
        ]
      },
      "properties": {
        "name": "Todd Merril Studio, Tribeca",
        "address": "424 Broadway",
        "url": "http://toddmerrillstudio.com/",
        "updated": false
      }
    },
    {
      "type": "Feature",
      "geometry": {
        "type": "Point",
        "coordinates": [
          -74.001235,
          40.718612
        ]
      },
      "properties": {
        "name": "Uprise Art",
        "address": "264 Canal St",
        "url": "https://www.upriseart.com/",
        "updated": false
      }
    },
    {
      "type": "Feature",
      "geometry": {
        "type": "Point",
        "coordinates": [
          -74.003376,
          40.72129
        ]
      },
      "properties": {
        "name": "YveYANG",
        "address": "12 Wooster St",
        "url": "https://www.yveyang.com/",
        "updated": false
      }
    },
    {
      "type": "Feature",
      "geometry": {
        "type": "Point",
        "coordinates": [
          -74.0061751,
          40.7492488
        ]
      },
      "properties": {
        "name": "C24 Gallery",
        "address": "560 W 24th St, New York, NY 10011, USA",
        "url": "http://www.c24gallery.com/",
        "updated": false
      }
    },
    {
      "type": "Feature",
      "geometry": {
        "type": "Point",
        "coordinates": [
          -74.004196,
          40.7482069
        ]
      },
      "properties": {
        "name": "Taglialatella Galleries",
        "address": "229 10th Ave, New York, NY 10011, USA",
        "url": "http://www.taglialatellagalleries.com/",
        "updated": false
      }
    },
    {
      "type": "Feature",
      "geometry": {
        "type": "Point",
        "coordinates": [
          -74.0044772,
          40.7489324
        ]
      },
      "properties": {
        "name": "Gladstone Gallery",
        "address": "515 W 24th St, New York, NY 10011, USA",
        "url": "http://www.gladstonegallery.com/",
        "updated": false
      }
    },
    {
      "type": "Feature",
      "geometry": {
        "type": "Point",
        "coordinates": [
          -74.00455649999999,
          40.749429
        ]
      },
      "properties": {
        "name": "Agora Gallery",
        "address": "530 W 25th St, New York, NY 10001, USA",
        "url": "http://www.agora-gallery.com/",
        "updated": false
      }
    },
    {
      "type": "Feature",
      "geometry": {
        "type": "Point",
        "coordinates": [
          -74.005,
          40.7491667
        ]
      },
      "properties": {
        "name": "Luhring Augustine Gallery",
        "address": "531 W 24th St, New York, NY 10011, USA",
        "url": "http://www.luhringaugustine.com/",
        "updated": false
      }
    },
    {
      "type": "Feature",
      "geometry": {
        "type": "Point",
        "coordinates": [
          -74.0071579,
          40.7516571
        ]
      },
      "properties": {
        "name": "SVA Chelsea Gallery",
        "address": "601 W 26th St Suite 1502, New York, NY 10001, USA",
        "url": "http://sva.edu/exhibitions",
        "updated": false
      }
    },
    {
      "type": "Feature",
      "geometry": {
        "type": "Point",
        "coordinates": [
          -74.0040728,
          40.7486264
        ]
      },
      "properties": {
        "name": "Boesky Gallery",
        "address": "507 W 24th St, New York, NY 10011, USA",
        "url": "https://marianneboeskygallery.com/",
        "updated": false
      }
    },
    {
      "type": "Feature",
      "geometry": {
        "type": "Point",
        "coordinates": [
          -74.0074398,
          40.7475016
        ]
      },
      "properties": {
        "name": "303 Gallery",
        "address": "555 W 21st St, New York, NY 10011, USA",
        "url": "http://www.303gallery.com/",
        "updated": false
      }
    },
    {
      "type": "Feature",
      "geometry": {
        "type": "Point",
        "coordinates": [
          -74.0024806,
          40.7509232
        ]
      },
      "properties": {
        "name": "High Line Nine",
        "address": "507 West 27th Street, 508 W 28th St, New York, NY 10001, USA",
        "url": "http://www.highlinenine.org/",
        "updated": false
      }
    },
    {
      "type": "Feature",
      "geometry": {
        "type": "Point",
        "coordinates": [
          -74.00430440000001,
          40.7479895
        ]
      },
      "properties": {
        "name": "Isabel Sullivan Gallery | Chelsea",
        "address": "501 W 23rd St, New York, NY 10011, USA",
        "url": "https://www.is.gallery/",
        "updated": false
      }
    },
    {
      "type": "Feature",
      "geometry": {
        "type": "Point",
        "coordinates": [
          -74.0058521,
          40.7494887
        ]
      },
      "properties": {
        "name": "Gagosian",
        "address": "555 W 24th St, New York, NY 10011, USA",
        "url": "https://gagosian.com/locations/west-24th/",
        "updated": false
      }
    },
    {
      "type": "Feature",
      "geometry": {
        "type": "Point",
        "coordinates": [
          -74.00504719999999,
          40.7496373
        ]
      },
      "properties": {
        "name": "Pace Gallery",
        "address": "540 W 25th St, New York, NY 10001, USA",
        "url": "http://www.pacegallery.com/",
        "updated": false
      }
    },
    {
      "type": "Feature",
      "geometry": {
        "type": "Point",
        "coordinates": [
          -74.0056317,
          40.7460003
        ]
      },
      "properties": {
        "name": "ACA Galleries est. 1932",
        "address": "173 10th Ave, New York, NY 10011, USA",
        "url": "http://www.acagalleries.com/",
        "updated": false
      }
    },
    {
      "type": "Feature",
      "geometry": {
        "type": "Point",
        "coordinates": [
          -74.0059122,
          40.747347
        ]
      },
      "properties": {
        "name": "Matthew Marks Gallery",
        "address": "522 W 22nd St, New York, NY 10011, USA",
        "url": "http://www.matthewmarks.com/",
        "updated": false
      }
    },
    {
      "type": "Feature",
      "geometry": {
        "type": "Point",
        "coordinates": [
          -73.9919615,
          40.7460684
        ]
      },
      "properties": {
        "name": "Casey Kaplan",
        "address": "121 W 27th St, New York, NY 10001, USA",
        "url": "http://www.caseykaplangallery.com/",
        "updated": false
      }
    },
    {
      "type": "Feature",
      "geometry": {
        "type": "Point",
        "coordinates": [
          -74.0048791,
          40.7499243
        ]
      },
      "properties": {
        "name": "The FLAG Art Foundation",
        "address": "545 W 25th St 9th Floor, New York, NY 10001, USA",
        "url": "http://www.flagartfoundation.org/",
        "updated": false
      }
    },
    {
      "type": "Feature",
      "geometry": {
        "type": "Point",
        "coordinates": [
          -74.0077256,
          40.7461564
        ]
      },
      "properties": {
        "name": "Michael Rosenfeld Gallery",
        "address": "100 11th Ave, New York, NY 10011, USA",
        "url": "http://www.michaelrosenfeld.com/",
        "updated": false
      }
    },
    {
      "type": "Feature",
      "geometry": {
        "type": "Point",
        "coordinates": [
          -73.9396675,
          40.7004016
        ]
      },
      "properties": {
        "name": "Bushwick Gallery",
        "address": "22 Fayette St, Brooklyn, NY 11206, USA",
        "url": "https://bushwickgallery.com/",
        "updated": false
      }
    },
    {
      "type": "Feature",
      "geometry": {
        "type": "Point",
        "coordinates": [
          -73.9221845,
          40.7075174
        ]
      },
      "properties": {
        "name": "The Bushwick Collective",
        "address": "427 Troutman St, Brooklyn, NY 11237, USA",
        "url": "",
        "updated": false
      }
    },
    {
      "type": "Feature",
      "geometry": {
        "type": "Point",
        "coordinates": [
          -73.935861,
          40.7110655
        ]
      },
      "properties": {
        "name": "Seven House Gallery",
        "address": "35 Meadow St, Brooklyn, NY 11206, USA",
        "url": "http://sevenhousenewyork.com/",
        "updated": false
      }
    },
    {
      "type": "Feature",
      "geometry": {
        "type": "Point",
        "coordinates": [
          -73.93065320000001,
          40.6941285
        ]
      },
      "properties": {
        "name": "The Living Gallery",
        "address": "1094 Broadway, Brooklyn, NY 11221, USA",
        "url": "http://www.the-living-gallery.com/",
        "updated": false
      }
    },
    {
      "type": "Feature",
      "geometry": {
        "type": "Point",
        "coordinates": [
          -73.9327253,
          40.7056801
        ]
      },
      "properties": {
        "name": "Brooklyn Art Collective",
        "address": "13 Grattan St, Brooklyn, NY 11206, USA",
        "url": "http://www.brooklyn-art-collective.com/shop",
        "updated": false
      }
    },
    {
      "type": "Feature",
      "geometry": {
        "type": "Point",
        "coordinates": [
          -73.933086,
          40.7071043
        ]
      },
      "properties": {
        "name": "Bottleneck Gallery",
        "address": "17 Ingraham St, Brooklyn, NY 11206, USA",
        "url": "http://bottleneckgallery.com/",
        "updated": false
      }
    },
    {
      "type": "Feature",
      "geometry": {
        "type": "Point",
        "coordinates": [
          -73.9284311,
          40.706474
        ]
      },
      "properties": {
        "name": "ALIUME Art Gallery",
        "address": "41 Porter Ave, Brooklyn, NY 11237, USA",
        "url": "http://www.aliumeart.com/",
        "updated": false
      }
    },
    {
      "type": "Feature",
      "geometry": {
        "type": "Point",
        "coordinates": [
          -73.9227484,
          40.705666
        ]
      },
      "properties": {
        "name": "Skewville",
        "address": "237 Starr St, Brooklyn, NY 11237, USA",
        "url": "https://skewville.com/",
        "updated": false
      }
    },
    {
      "type": "Feature",
      "geometry": {
        "type": "Point",
        "coordinates": [
          -73.92424799999999,
          40.697805
        ]
      },
      "properties": {
        "name": "RISK Gallery & Boutique",
        "address": "205 Central Ave, Brooklyn, NY 11221, USA",
        "url": "http://riskgalleryboutique.com/",
        "updated": false
      }
    },
    {
      "type": "Feature",
      "geometry": {
        "type": "Point",
        "coordinates": [
          -73.932705,
          40.7057069
        ]
      },
      "properties": {
        "name": "A Space Gallery",
        "address": "13 Grattan St #402, Brooklyn, NY 11206, USA",
        "url": "https://www.aspacegallery.net/",
        "updated": false
      }
    },
    {
      "type": "Feature",
      "geometry": {
        "type": "Point",
        "coordinates": [
          -73.92121019999999,
          40.7062345
        ]
      },
      "properties": {
        "name": "Transmitter",
        "address": "1329 Willoughby Ave, Brooklyn, NY 11237, USA",
        "url": "http://www.transmitter.nyc/",
        "updated": false
      }
    },
    {
      "type": "Feature",
      "geometry": {
        "type": "Point",
        "coordinates": [
          -73.94975749999999,
          40.6996642
        ]
      },
      "properties": {
        "name": "The Bishop",
        "address": "630 Flushing Ave, Brooklyn, NY 11206, USA",
        "url": "http://thebishopgallery.com/",
        "updated": false
      }
    },
    {
      "type": "Feature",
      "geometry": {
        "type": "Point",
        "coordinates": [
          -73.9298539,
          40.7040461
        ]
      },
      "properties": {
        "name": "3RD ETHOS GALLERY",
        "address": "184 Noll St #3, Brooklyn, NY 11237, USA",
        "url": "https://linktr.ee/3rdethos",
        "updated": false
      }
    },
    {
      "type": "Feature",
      "geometry": {
        "type": "Point",
        "coordinates": [
          -73.9255053,
          40.7086966
        ]
      },
      "properties": {
        "name": "The Active Space",
        "address": "566 Johnson Ave, Brooklyn, NY 11237, USA",
        "url": "http://activespacestudios.com/",
        "updated": false
      }
    },
    {
      "type": "Feature",
      "geometry": {
        "type": "Point",
        "coordinates": [
          -73.93299569999999,
          40.7026666
        ]
      },
      "properties": {
        "name": "C5BK",
        "address": "5 Central Ave Space B, Brooklyn, NY 11206, USA",
        "url": "http://c5bk.com/",
        "updated": false
      }
    },
    {
      "type": "Feature",
      "geometry": {
        "type": "Point",
        "coordinates": [
          -73.92882329999999,
          40.6950903
        ]
      },
      "properties": {
        "name": "Arts and Rhymes Who Got Style wall",
        "address": "786 Bushwick Ave, Brooklyn, NY 11221, USA",
        "url": "",
        "updated": false
      }
    },
    {
      "type": "Feature",
      "geometry": {
        "type": "Point",
        "coordinates": [
          -73.9382722,
          40.6828827
        ]
      },
      "properties": {
        "name": "Richard Beavers Gallery, Brooklyn",
        "address": "Richard Beavers Gallery, 408 Marcus Garvey Blvd, Brooklyn, NY 11216, USA",
        "url": "http://richardbeaversgallery.com/",
        "updated": false
      }
    },
    {
      "type": "Feature",
      "geometry": {
        "type": "Point",
        "coordinates": [
          -73.9283585,
          40.7066363
        ]
      },
      "properties": {
        "name": "Structural Color Gallery, LLC",
        "address": "117 Grattan St Suite 114, Brooklyn, NY 11237, USA",
        "url": "https://www.structuralcolorgallery.com/?utm_source=google&utm_medium=wix_google_business_profile&utm_campaign=8967950875205061564",
        "updated": false
      }
    },
    {
      "type": "Feature",
      "geometry": {
        "type": "Point",
        "coordinates": [
          -73.9063357,
          40.697878
        ]
      },
      "properties": {
        "name": "Lorimoto Gallery",
        "address": "16-23 Hancock St, Ridgewood, NY 11385, USA",
        "url": "https://www.lorimoto.com/",
        "updated": false
      }
    },
    {
      "type": "Feature",
      "geometry": {
        "type": "Point",
        "coordinates": [
          -73.93307829999999,
          40.7056827
        ]
      },
      "properties": {
        "name": "The BogArt",
        "address": "56 Bogart St, Brooklyn, NY 11206, USA",
        "url": "http://56bogartstreet.com/",
        "updated": false
      }
    },
    {
      "type": "Feature",
      "geometry": {
        "type": "Point",
        "coordinates": [
          -73.9843246,
          40.7028059
        ]
      },
      "properties": {
        "name": "AMR Art DUMBO",
        "address": "53 Bridge St #706, Brooklyn, NY 11201, USA",
        "url": "https://www.amrartdumbo.com/",
        "updated": false
      }
    },
    {
      "type": "Feature",
      "geometry": {
        "type": "Point",
        "coordinates": [
          -73.98699690000001,
          40.7038464
        ]
      },
      "properties": {
        "name": "usagi",
        "address": "163 Plymouth St, Brooklyn, NY 11201, USA",
        "url": "http://usaginy.com/",
        "updated": false
      }
    },
    {
      "type": "Feature",
      "geometry": {
        "type": "Point",
        "coordinates": [
          -73.9905931,
          40.7028115
        ]
      },
      "properties": {
        "name": "Higher Pictures",
        "address": "45 Main St #723, Brooklyn, NY 11201, USA",
        "url": "http://www.higherpicturesgeneration.com/",
        "updated": false
      }
    },
    {
      "type": "Feature",
      "geometry": {
        "type": "Point",
        "coordinates": [
          -73.98526749999999,
          40.7041754
        ]
      },
      "properties": {
        "name": "John St Gallery",
        "address": "70 John St, Brooklyn, NY 11201, USA",
        "url": "http://johnst.nyc/",
        "updated": false
      }
    },
    {
      "type": "Feature",
      "geometry": {
        "type": "Point",
        "coordinates": [
          -73.9871299,
          40.702622
        ]
      },
      "properties": {
        "name": "Billie Elise",
        "address": "145 Front St SHOP 12, Brooklyn, NY 11201, USA",
        "url": "https://www.billieelise.com/",
        "updated": false
      }
    },
    {
      "type": "Feature",
      "geometry": {
        "type": "Point",
        "coordinates": [
          -73.9902175,
          40.7035776
        ]
      },
      "properties": {
        "name": "Main window",
        "address": "1 Main St, Brooklyn, NY 11201, USA",
        "url": "",
        "updated": false
      }
    },
    {
      "type": "Feature",
      "geometry": {
        "type": "Point",
        "coordinates": [
          -73.98515080000001,
          40.7036616
        ]
      },
      "properties": {
        "name": "Cierra Britton Gallery",
        "address": "202b Plymouth St, Brooklyn, NY 11201, USA",
        "url": "https://cierrabritton.com/",
        "updated": false
      }
    },
    {
      "type": "Feature",
      "geometry": {
        "type": "Point",
        "coordinates": [
          -73.9909737,
          40.7033589
        ]
      },
      "properties": {
        "name": "Janet Borden Inc",
        "address": "91 Water St, Brooklyn, NY 11201, USA",
        "url": "http://janetbordeninc.com/",
        "updated": false
      }
    },
    {
      "type": "Feature",
      "geometry": {
        "type": "Point",
        "coordinates": [
          -73.9810057,
          40.70239979999999
        ]
      },
      "properties": {
        "name": "Gallery Gaia",
        "address": "79 Hudson Ave, Brooklyn, NY 11201, USA",
        "url": "https://artindumbo.com/gallery/gallery-gaia/",
        "updated": false
      }
    },
    {
      "type": "Feature",
      "geometry": {
        "type": "Point",
        "coordinates": [
          -73.98671200000001,
          40.704029
        ]
      },
      "properties": {
        "name": "Springs Projects",
        "address": "20 Jay St #311b, Brooklyn, NY 11201, USA",
        "url": "https://www.instagram.com/springsprojects/",
        "updated": false
      }
    },
    {
      "type": "Feature",
      "geometry": {
        "type": "Point",
        "coordinates": [
          -73.9878255,
          40.7034411
        ]
      },
      "properties": {
        "name": "Baci Studio",
        "address": "55 Anchorage Pl, Brooklyn, NY 11201, USA",
        "url": "https://www.bacistudio.com/",
        "updated": false
      }
    },
    {
      "type": "Feature",
      "geometry": {
        "type": "Point",
        "coordinates": [
          -73.98526749999999,
          40.7041754
        ]
      },
      "properties": {
        "name": "Stump Gallery",
        "address": "70 John St, Brooklyn, NY 11201, USA",
        "url": "https://stumpgallery.com/",
        "updated": false
      }
    },
    {
      "type": "Feature",
      "geometry": {
        "type": "Point",
        "coordinates": [
          -73.9843246,
          40.7028059
        ]
      },
      "properties": {
        "name": "CREATIVEBLOCH STUDIO & GALLERY",
        "address": "53 Bridge St 412 4th Floor, Brooklyn, NY 11201, USA",
        "url": "http://www.creativebloch.com/",
        "updated": false
      }
    },
    {
      "type": "Feature",
      "geometry": {
        "type": "Point",
        "coordinates": [
          -73.9847829,
          40.7041707
        ]
      },
      "properties": {
        "name": "Dynomighty Design Inc.",
        "address": "18 Bridge St #4G, Brooklyn, NY 11201, USA",
        "url": "",
        "updated": false
      }
    },
    {
      "type": "Feature",
      "geometry": {
        "type": "Point",
        "coordinates": [
          -73.9869859,
          40.6918644
        ]
      },
      "properties": {
        "name": "Faith Art Gallery",
        "address": "395 Jay St, Brooklyn, NY 11201, USA",
        "url": "http://faithartgallerybrooklyn.com/",
        "updated": false
      }
    },
    {
      "type": "Feature",
      "geometry": {
        "type": "Point",
        "coordinates": [
          -73.9881497,
          40.7037574
        ]
      },
      "properties": {
        "name": "ZAROLAT",
        "address": "140 Plymouth St, Brooklyn, NY 11201, USA",
        "url": "https://www.zarolat.com/",
        "updated": false
      }
    },
    {
      "type": "Feature",
      "geometry": {
        "type": "Point",
        "coordinates": [
          -73.9878323,
          40.7037479
        ]
      },
      "properties": {
        "name": "Hudson Wilder",
        "address": "142 Plymouth St, Brooklyn, NY 11201, USA",
        "url": "https://hudsonwilder.com/",
        "updated": false
      }
    },
    {
      "type": "Feature",
      "geometry": {
        "type": "Point",
        "coordinates": [
          -73.9850994,
          40.7035268
        ]
      },
      "properties": {
        "name": "Elma",
        "address": "216 Plymouth St, Brooklyn, NY 11201, USA",
        "url": "",
        "updated": false
      }
    },
    {
      "type": "Feature",
      "geometry": {
        "type": "Point",
        "coordinates": [
          -73.984872,
          40.703163
        ]
      },
      "properties": {
        "name": "Detritus Designs LLC",
        "address": "50 Bridge St, Brooklyn, NY 11201, USA",
        "url": "http://detritusartanddesign.com/",
        "updated": false
      }
    },
    {
      "type": "Feature",
      "geometry": {
        "type": "Point",
        "coordinates": [
          -73.9983341,
          40.6915054
        ]
      },
      "properties": {
        "name": "Eleventh Hour Art",
        "address": "61 Atlantic Ave, Brooklyn, NY 11201, USA",
        "url": "http://www.eleventhhourart.com/",
        "updated": false
      }
    },
    {
      "type": "Feature",
      "geometry": {
        "type": "Point",
        "coordinates": [
          -73.956636,
          40.710774
        ]
      },
      "properties": {
        "name": "AM:PM GALLERY",
        "address": "108 Marcy Ave, Brooklyn, NY 11211, USA",
        "url": "http://www.ampmgallery.com/",
        "updated": false
      }
    },
    {
      "type": "Feature",
      "geometry": {
        "type": "Point",
        "coordinates": [
          -73.9549377,
          40.7134273
        ]
      },
      "properties": {
        "name": "Brooklyn Art Haus",
        "address": "24 Marcy Ave, Brooklyn, NY 11211, USA",
        "url": "http://www.bkarthaus.com/",
        "updated": false
      }
    },
    {
      "type": "Feature",
      "geometry": {
        "type": "Point",
        "coordinates": [
          -73.9570805,
          40.7111986
        ]
      },
      "properties": {
        "name": "Awita New York Studio",
        "address": "274 S 2nd St, Brooklyn, NY 11211, USA",
        "url": "http://www.awitanewyork.com/",
        "updated": false
      }
    },
    {
      "type": "Feature",
      "geometry": {
        "type": "Point",
        "coordinates": [
          -73.953453,
          40.7111317
        ]
      },
      "properties": {
        "name": "Carrie Able Gallery",
        "address": "409 Keap St, Brooklyn, NY 11211, USA",
        "url": "http://carrieablegallery.com/",
        "updated": false
      }
    },
    {
      "type": "Feature",
      "geometry": {
        "type": "Point",
        "coordinates": [
          -73.9557975,
          40.7187472
        ]
      },
      "properties": {
        "name": "Pierogi Gallery",
        "address": "177 N 9th St, Brooklyn, NY 11211, USA",
        "url": "https://www.pierogi2000.com/",
        "updated": false
      }
    },
    {
      "type": "Feature",
      "geometry": {
        "type": "Point",
        "coordinates": [
          -73.9623874,
          40.7174843
        ]
      },
      "properties": {
        "name": "Twelve Chairs Gallery",
        "address": "101-85 N 3rd St #108, Brooklyn, NY 11249, USA",
        "url": "https://twelvechairsgallery.com/",
        "updated": false
      }
    },
    {
      "type": "Feature",
      "geometry": {
        "type": "Point",
        "coordinates": [
          -73.9592514,
          40.7134776
        ]
      },
      "properties": {
        "name": "Choplet Ceramic Studio & Gallery",
        "address": "238 Grand St, Brooklyn, NY 11211, USA",
        "url": "http://www.choplet.com/",
        "updated": false
      }
    },
    {
      "type": "Feature",
      "geometry": {
        "type": "Point",
        "coordinates": [
          -73.9663193,
          40.7112462
        ]
      },
      "properties": {
        "name": "Abstrakt Studio & Gallery",
        "address": "58 S 6th St, Brooklyn, NY 11249, USA",
        "url": "https://www.livelifeabstrakt.com/",
        "updated": false
      }
    },
    {
      "type": "Feature",
      "geometry": {
        "type": "Point",
        "coordinates": [
          -73.9517151,
          40.70565819999999
        ]
      },
      "properties": {
        "name": "Cooler Gallery",
        "address": "325 Rutledge St, Brooklyn, NY 11211, USA",
        "url": "http://www.cooler-gallery.com/",
        "updated": false
      }
    },
    {
      "type": "Feature",
      "geometry": {
        "type": "Point",
        "coordinates": [
          -73.9486259,
          40.7127569
        ]
      },
      "properties": {
        "name": "Summertime",
        "address": "145 Ainslie St, Brooklyn, NY 11211, USA",
        "url": "http://www.summertimegallery.org/",
        "updated": false
      }
    },
    {
      "type": "Feature",
      "geometry": {
        "type": "Point",
        "coordinates": [
          -73.96243030000001,
          40.7175147
        ]
      },
      "properties": {
        "name": "Sculpture Terrace by Twelve Chairs Gallery",
        "address": "205 Wythe Ave, Brooklyn, NY 11249, USA",
        "url": "https://twelvechairsgallery.com/",
        "updated": false
      }
    },
    {
      "type": "Feature",
      "geometry": {
        "type": "Point",
        "coordinates": [
          -73.9490763,
          40.7304405
        ]
      },
      "properties": {
        "name": "Brooklyn Art Studios",
        "address": "276 Greenpoint Ave, Brooklyn, NY 11222, USA",
        "url": "http://brooklynartstudiosnyc.blogspot.com/",
        "updated": false
      }
    },
    {
      "type": "Feature",
      "geometry": {
        "type": "Point",
        "coordinates": [
          -73.957222,
          40.712761
        ]
      },
      "properties": {
        "name": "About Glamour",
        "address": "310 Grand St, Brooklyn, NY 11211, USA",
        "url": "http://www.aboutglamour.net/",
        "updated": false
      }
    },
    {
      "type": "Feature",
      "geometry": {
        "type": "Point",
        "coordinates": [
          -73.9488635,
          40.7245954
        ]
      },
      "properties": {
        "name": "Nassau Avenue Gallery",
        "address": "123 Nassau Ave, Brooklyn, NY 11222, USA",
        "url": "http://nassauavenuegallery.square.site/",
        "updated": false
      }
    },
    {
      "type": "Feature",
      "geometry": {
        "type": "Point",
        "coordinates": [
          -73.936878,
          40.708448
        ]
      },
      "properties": {
        "name": "Graff Tours - The Street Art Studio NYC",
        "address": "282 Meserole St, Brooklyn, NY 11206, USA",
        "url": "http://www.grafftours.com/",
        "updated": false
      }
    }
  ]
}